{
  "kind": "points",
  "source": "GeoNames cities15000 dump (download.geonames.org/export/dump/cities15000.zip), filtered to feature class P and sorted by population descending.",
  "note": "Top 120 most populous cities worldwide by GeoNames population figures.",
  "items": [
    {
      "id": "1796236",
      "rank": 1,
      "name": "Shanghai",
      "country": "China",
      "lat": 31.22222,
      "lng": 121.45806,
      "population": 24874500
    },
    {
      "id": "1816670",
      "rank": 2,
      "name": "Beijing",
      "country": "China",
      "lat": 39.9075,
      "lng": 116.39723,
      "population": 18960744
    },
    {
      "id": "1795565",
      "rank": 3,
      "name": "Shenzhen",
      "country": "China",
      "lat": 22.54554,
      "lng": 114.0683,
      "population": 17494398
    },
    {
      "id": "1809858",
      "rank": 4,
      "name": "Guangzhou",
      "country": "China",
      "lat": 23.11667,
      "lng": 113.25,
      "population": 16096724
    },
    {
      "id": "2314302",
      "rank": 5,
      "name": "Kinshasa",
      "country": "Democratic Republic of the Congo",
      "lat": -4.32758,
      "lng": 15.31357,
      "population": 16000000
    },
    {
      "id": "745044",
      "rank": 6,
      "name": "Istanbul",
      "country": "Turkey",
      "lat": 41.01384,
      "lng": 28.94966,
      "population": 15701602
    },
    {
      "id": "2332459",
      "rank": 7,
      "name": "Lagos",
      "country": "Nigeria",
      "lat": 6.45407,
      "lng": 3.39467,
      "population": 15388000
    },
    {
      "id": "1566083",
      "rank": 8,
      "name": "Ho Chi Minh City",
      "country": "Vietnam",
      "lat": 10.82302,
      "lng": 106.62965,
      "population": 14002598
    },
    {
      "id": "1815286",
      "rank": 9,
      "name": "Chengdu",
      "country": "China",
      "lat": 30.66667,
      "lng": 104.06667,
      "population": 13568357
    },
    {
      "id": "1172451",
      "rank": 10,
      "name": "Lahore",
      "country": "Pakistan",
      "lat": 31.558,
      "lng": 74.35071,
      "population": 13004135
    },
    {
      "id": "1275339",
      "rank": 11,
      "name": "Mumbai",
      "country": "India",
      "lat": 19.07283,
      "lng": 72.88261,
      "population": 12691836
    },
    {
      "id": "3448439",
      "rank": 12,
      "name": "Sao Paulo",
      "country": "Brazil",
      "lat": -23.5475,
      "lng": -46.63611,
      "population": 12400232
    },
    {
      "id": "3530597",
      "rank": 13,
      "name": "Mexico City",
      "country": "Mexico",
      "lat": 19.42847,
      "lng": -99.12766,
      "population": 12294193
    },
    {
      "id": "1174872",
      "rank": 14,
      "name": "Karachi",
      "country": "Pakistan",
      "lat": 24.8608,
      "lng": 67.0104,
      "population": 11624219
    },
    {
      "id": "1792947",
      "rank": 15,
      "name": "Tianjin",
      "country": "China",
      "lat": 39.14222,
      "lng": 117.17667,
      "population": 11090314
    },
    {
      "id": "1273294",
      "rank": 16,
      "name": "Delhi",
      "country": "India",
      "lat": 28.65195,
      "lng": 77.23149,
      "population": 11034555
    },
    {
      "id": "1791247",
      "rank": 17,
      "name": "Wuhan",
      "country": "China",
      "lat": 30.58333,
      "lng": 114.26667,
      "population": 10392693
    },
    {
      "id": "524901",
      "rank": 18,
      "name": "Moscow",
      "country": "Russia",
      "lat": 55.75204,
      "lng": 37.61781,
      "population": 10381222
    },
    {
      "id": "1185241",
      "rank": 19,
      "name": "Dhaka",
      "country": "Bangladesh",
      "lat": 23.7104,
      "lng": 90.40744,
      "population": 10356500
    },
    {
      "id": "1835848",
      "rank": 20,
      "name": "Seoul",
      "country": "South Korea",
      "lat": 37.566,
      "lng": 126.9784,
      "population": 10349312
    },
    {
      "id": "1850147",
      "rank": 21,
      "name": "Tokyo",
      "country": "Japan",
      "lat": 35.6895,
      "lng": 139.69171,
      "population": 9733276
    },
    {
      "id": "1812545",
      "rank": 22,
      "name": "Dongguan",
      "country": "China",
      "lat": 23.01797,
      "lng": 113.74866,
      "population": 9644871
    },
    {
      "id": "360630",
      "rank": 23,
      "name": "Cairo",
      "country": "Egypt",
      "lat": 30.06263,
      "lng": 31.24967,
      "population": 9606916
    },
    {
      "id": "1790630",
      "rank": 24,
      "name": "Xi'an",
      "country": "China",
      "lat": 34.25833,
      "lng": 108.92861,
      "population": 9600000
    },
    {
      "id": "993800",
      "rank": 25,
      "name": "Johannesburg",
      "country": "South Africa",
      "lat": -26.20227,
      "lng": 28.04363,
      "population": 9418183
    },
    {
      "id": "1799962",
      "rank": 26,
      "name": "Nanjing",
      "country": "China",
      "lat": 32.06167,
      "lng": 118.77778,
      "population": 9314685
    },
    {
      "id": "1808926",
      "rank": 27,
      "name": "Hangzhou",
      "country": "China",
      "lat": 30.29365,
      "lng": 120.16142,
      "population": 9236032
    },
    {
      "id": "1811103",
      "rank": 28,
      "name": "Foshan",
      "country": "China",
      "lat": 23.02677,
      "lng": 113.13148,
      "population": 9042509
    },
    {
      "id": "2643743",
      "rank": 29,
      "name": "London",
      "country": "United Kingdom",
      "lat": 51.50853,
      "lng": -0.12574,
      "population": 8961989
    },
    {
      "id": "5128581",
      "rank": 30,
      "name": "New York City",
      "country": "United States",
      "lat": 40.71427,
      "lng": -74.00597,
      "population": 8804190
    },
    {
      "id": "1642911",
      "rank": 31,
      "name": "Jakarta",
      "country": "Indonesia",
      "lat": -6.21462,
      "lng": 106.84513,
      "population": 8540121
    },
    {
      "id": "1277333",
      "rank": 32,
      "name": "Bengaluru",
      "country": "India",
      "lat": 12.97194,
      "lng": 77.59369,
      "population": 8495492
    },
    {
      "id": "1581130",
      "rank": 33,
      "name": "Hanoi",
      "country": "Vietnam",
      "lat": 21.0245,
      "lng": 105.84117,
      "population": 8053663
    },
    {
      "id": "1668341",
      "rank": 34,
      "name": "Taipei",
      "country": "Taiwan",
      "lat": 25.05306,
      "lng": 121.52639,
      "population": 7871900
    },
    {
      "id": "3936456",
      "rank": 35,
      "name": "Lima",
      "country": "Peru",
      "lat": -12.04318,
      "lng": -77.02824,
      "population": 7737002
    },
    {
      "id": "3688689",
      "rank": 36,
      "name": "Bogota",
      "country": "Colombia",
      "lat": 4.60971,
      "lng": -74.08175,
      "population": 7674366
    },
    {
      "id": "1814906",
      "rank": 37,
      "name": "Chongqing",
      "country": "China",
      "lat": 29.56026,
      "lng": 106.55771,
      "population": 7457599
    },
    {
      "id": "1819729",
      "rank": 38,
      "name": "Hong Kong",
      "country": "Hong Kong",
      "lat": 22.27832,
      "lng": 114.17469,
      "population": 7396076
    },
    {
      "id": "98182",
      "rank": 39,
      "name": "Baghdad",
      "country": "Iraq",
      "lat": 33.34058,
      "lng": 44.40088,
      "population": 7216000
    },
    {
      "id": "1790842",
      "rank": 40,
      "name": "Wuzhong",
      "country": "China",
      "lat": 37.9867,
      "lng": 106.201,
      "population": 7202654
    },
    {
      "id": "1797929",
      "rank": 41,
      "name": "Qingdao",
      "country": "China",
      "lat": 36.06488,
      "lng": 120.38042,
      "population": 7172451
    },
    {
      "id": "112931",
      "rank": 42,
      "name": "Tehran",
      "country": "Iran",
      "lat": 35.69439,
      "lng": 51.42151,
      "population": 7153309
    },
    {
      "id": "2034937",
      "rank": 43,
      "name": "Shenyang",
      "country": "China",
      "lat": 41.79222,
      "lng": 123.43278,
      "population": 7050000
    },
    {
      "id": "1269843",
      "rank": 44,
      "name": "Hyderabad",
      "country": "India",
      "lat": 17.38405,
      "lng": 78.45636,
      "population": 6993262
    },
    {
      "id": "3451190",
      "rank": 45,
      "name": "Rio de Janeiro",
      "country": "Brazil",
      "lat": -22.90642,
      "lng": -43.18223,
      "population": 6747815
    },
    {
      "id": "1886760",
      "rank": 46,
      "name": "Suzhou",
      "country": "China",
      "lat": 31.30408,
      "lng": 120.59538,
      "population": 6715559
    },
    {
      "id": "11072148",
      "rank": 47,
      "name": "Puxi",
      "country": "China",
      "lat": 31.24414,
      "lng": 121.46592,
      "population": 6683712
    },
    {
      "id": "1279233",
      "rank": 48,
      "name": "Ahmedabad",
      "country": "India",
      "lat": 23.02579,
      "lng": 72.58727,
      "population": 6357693
    },
    {
      "id": "2293538",
      "rank": 49,
      "name": "Abidjan",
      "country": "Ivory Coast",
      "lat": 5.35444,
      "lng": -4.00167,
      "population": 6321017
    },
    {
      "id": "1798524",
      "rank": 50,
      "name": "Pudong",
      "country": "China",
      "lat": 31.23995,
      "lng": 121.50094,
      "population": 5681512
    },
    {
      "id": "2147714",
      "rank": 51,
      "name": "Sydney",
      "country": "Australia",
      "lat": -33.86785,
      "lng": 151.20732,
      "population": 5638830
    },
    {
      "id": "1880252",
      "rank": 52,
      "name": "Singapore",
      "country": "Singapore",
      "lat": 1.28967,
      "lng": 103.85007,
      "population": 5638700
    },
    {
      "id": "2158177",
      "rank": 53,
      "name": "Melbourne",
      "country": "Australia",
      "lat": -37.814,
      "lng": 144.96332,
      "population": 5435590
    },
    {
      "id": "160263",
      "rank": 54,
      "name": "Dar es Salaam",
      "country": "Tanzania",
      "lat": -6.82349,
      "lng": 39.26951,
      "population": 5383728
    },
    {
      "id": "498817",
      "rank": 55,
      "name": "Saint Petersburg",
      "country": "Russia",
      "lat": 59.93863,
      "lng": 30.31413,
      "population": 5351935
    },
    {
      "id": "361058",
      "rank": 56,
      "name": "Alexandria",
      "country": "Egypt",
      "lat": 31.20176,
      "lng": 29.91582,
      "population": 5263542
    },
    {
      "id": "2037013",
      "rank": 57,
      "name": "Harbin",
      "country": "China",
      "lat": 45.75,
      "lng": 126.65,
      "population": 5242897
    },
    {
      "id": "1609350",
      "rank": 58,
      "name": "Bangkok",
      "country": "Thailand",
      "lat": 13.75398,
      "lng": 100.50144,
      "population": 5104476
    },
    {
      "id": "1808722",
      "rank": 59,
      "name": "Hefei",
      "country": "China",
      "lat": 31.86389,
      "lng": 117.28083,
      "population": 5050000
    },
    {
      "id": "1814087",
      "rank": 60,
      "name": "Dalian",
      "country": "China",
      "lat": 38.91222,
      "lng": 121.60222,
      "population": 4913879
    },
    {
      "id": "2335204",
      "rank": 61,
      "name": "Kano",
      "country": "Nigeria",
      "lat": 12.00012,
      "lng": 8.51672,
      "population": 4910000
    },
    {
      "id": "3871336",
      "rank": 62,
      "name": "Santiago",
      "country": "Chile",
      "lat": -33.45694,
      "lng": -70.64827,
      "population": 4837295
    },
    {
      "id": "3369157",
      "rank": 63,
      "name": "Cape Town",
      "country": "South Africa",
      "lat": -33.92584,
      "lng": 18.42322,
      "population": 4772846
    },
    {
      "id": "1168197",
      "rank": 64,
      "name": "Peshawar",
      "country": "Pakistan",
      "lat": 34.008,
      "lng": 71.57849,
      "population": 4758762
    },
    {
      "id": "2038180",
      "rank": 65,
      "name": "Changchun",
      "country": "China",
      "lat": 43.88,
      "lng": 125.32278,
      "population": 4714996
    },
    {
      "id": "105343",
      "rank": 66,
      "name": "Jeddah",
      "country": "Saudi Arabia",
      "lat": 21.49012,
      "lng": 39.18624,
      "population": 4697000
    },
    {
      "id": "1264527",
      "rank": 67,
      "name": "Chennai",
      "country": "India",
      "lat": 13.08784,
      "lng": 80.27847,
      "population": 4681087
    },
    {
      "id": "1275004",
      "rank": 68,
      "name": "Kolkata",
      "country": "India",
      "lat": 22.56263,
      "lng": 88.36304,
      "population": 4631392
    },
    {
      "id": "1790645",
      "rank": 69,
      "name": "Xiamen",
      "country": "China",
      "lat": 24.47979,
      "lng": 118.08187,
      "population": 4617251
    },
    {
      "id": "1255364",
      "rank": 70,
      "name": "Surat",
      "country": "India",
      "lat": 21.19594,
      "lng": 72.83023,
      "population": 4591246
    },
    {
      "id": "1298824",
      "rank": 71,
      "name": "Yangon",
      "country": "Myanmar",
      "lat": 16.80528,
      "lng": 96.15611,
      "population": 4477638
    },
    {
      "id": "13308620",
      "rank": 72,
      "name": "Bao'an",
      "country": "China",
      "lat": 22.55213,
      "lng": 113.88288,
      "population": 4476554
    },
    {
      "id": "1138958",
      "rank": 73,
      "name": "Kabul",
      "country": "Afghanistan",
      "lat": 34.52813,
      "lng": 69.17233,
      "population": 4434550
    },
    {
      "id": "184745",
      "rank": 74,
      "name": "Nairobi",
      "country": "Kenya",
      "lat": -1.28333,
      "lng": 36.81667,
      "population": 4397073
    },
    {
      "id": "1790923",
      "rank": 75,
      "name": "Wuxi",
      "country": "China",
      "lat": 31.56887,
      "lng": 120.28857,
      "population": 4396835
    },
    {
      "id": "360995",
      "rank": 76,
      "name": "Giza",
      "country": "Egypt",
      "lat": 30.00944,
      "lng": 31.20861,
      "population": 4367343
    },
    {
      "id": "1805753",
      "rank": 77,
      "name": "Jinan",
      "country": "China",
      "lat": 36.66833,
      "lng": 116.99722,
      "population": 4335989
    },
    {
      "id": "1793511",
      "rank": 78,
      "name": "Taiyuan",
      "country": "China",
      "lat": 37.86944,
      "lng": 112.56028,
      "population": 4303673
    },
    {
      "id": "1784658",
      "rank": 79,
      "name": "Zhengzhou",
      "country": "China",
      "lat": 34.75778,
      "lng": 113.64861,
      "population": 4253913
    },
    {
      "id": "2460596",
      "rank": 80,
      "name": "Bamako",
      "country": "Mali",
      "lat": 12.60915,
      "lng": -7.97522,
      "population": 4227569
    },
    {
      "id": "108410",
      "rank": 81,
      "name": "Riyadh",
      "country": "Saudi Arabia",
      "lat": 24.68773,
      "lng": 46.72185,
      "population": 4205961
    },
    {
      "id": "12908892",
      "rank": 82,
      "name": "New Taipei City",
      "country": "Taiwan",
      "lat": 25.06199,
      "lng": 121.45703,
      "population": 4004367
    },
    {
      "id": "12747063",
      "rank": 83,
      "name": "New Territories",
      "country": "Hong Kong",
      "lat": 22.42441,
      "lng": 114.11095,
      "population": 3984077
    },
    {
      "id": "1795270",
      "rank": 84,
      "name": "Shijiazhuang",
      "country": "China",
      "lat": 38.04139,
      "lng": 114.47861,
      "population": 3938513
    },
    {
      "id": "1205733",
      "rank": 85,
      "name": "Chattogram",
      "country": "Bangladesh",
      "lat": 22.3384,
      "lng": 91.83168,
      "population": 3920222
    },
    {
      "id": "344979",
      "rank": 86,
      "name": "Addis Ababa",
      "country": "Ethiopia",
      "lat": 9.02497,
      "lng": 38.74689,
      "population": 3860000
    },
    {
      "id": "1804651",
      "rank": 87,
      "name": "Kunming",
      "country": "China",
      "lat": 25.03889,
      "lng": 102.71833,
      "population": 3855346
    },
    {
      "id": "6986104",
      "rank": 88,
      "name": "Zhongshan",
      "country": "China",
      "lat": 22.52306,
      "lng": 113.37912,
      "population": 3841873
    },
    {
      "id": "1799869",
      "rank": 89,
      "name": "Nanning",
      "country": "China",
      "lat": 22.81667,
      "lng": 108.31667,
      "population": 3839800
    },
    {
      "id": "1795940",
      "rank": 90,
      "name": "Shantou",
      "country": "China",
      "lat": 23.35489,
      "lng": 116.67876,
      "population": 3838900
    },
    {
      "id": "5368361",
      "rank": 91,
      "name": "Los Angeles",
      "country": "United States",
      "lat": 34.05223,
      "lng": -118.24368,
      "population": 3820914
    },
    {
      "id": "1179400",
      "rank": 92,
      "name": "Faisalabad",
      "country": "Pakistan",
      "lat": 31.41554,
      "lng": 73.08969,
      "population": 3800193
    },
    {
      "id": "292223",
      "rank": 93,
      "name": "Dubai",
      "country": "United Arab Emirates",
      "lat": 25.07725,
      "lng": 55.30927,
      "population": 3790000
    },
    {
      "id": "1848354",
      "rank": 94,
      "name": "Yokohama",
      "country": "Japan",
      "lat": 35.43333,
      "lng": 139.65,
      "population": 3777491
    },
    {
      "id": "1810821",
      "rank": 95,
      "name": "Fuzhou",
      "country": "China",
      "lat": 26.06139,
      "lng": 119.30611,
      "population": 3740000
    },
    {
      "id": "1799397",
      "rank": 96,
      "name": "Ningbo",
      "country": "China",
      "lat": 29.87819,
      "lng": 121.54945,
      "population": 3731203
    },
    {
      "id": "2553604",
      "rank": 97,
      "name": "Casablanca",
      "country": "Morocco",
      "lat": 33.58831,
      "lng": -7.61138,
      "population": 3665954
    },
    {
      "id": "2339354",
      "rank": 98,
      "name": "Ibadan",
      "country": "Nigeria",
      "lat": 7.37756,
      "lng": 3.90591,
      "population": 3649000
    },
    {
      "id": "1798425",
      "rank": 99,
      "name": "Puyang",
      "country": "China",
      "lat": 29.45679,
      "lng": 119.88872,
      "population": 3590000
    },
    {
      "id": "323786",
      "rank": 100,
      "name": "Ankara",
      "country": "Turkey",
      "lat": 39.91987,
      "lng": 32.85427,
      "population": 3517182
    },
    {
      "id": "1794903",
      "rank": 101,
      "name": "Shiyan",
      "country": "China",
      "lat": 32.6475,
      "lng": 110.77806,
      "population": 3460000
    },
    {
      "id": "2950159",
      "rank": 102,
      "name": "Berlin",
      "country": "Germany",
      "lat": 52.52437,
      "lng": 13.41053,
      "population": 3426354
    },
    {
      "id": "1793346",
      "rank": 103,
      "name": "Tangshan",
      "country": "China",
      "lat": 39.64381,
      "lng": 118.18319,
      "population": 3372102
    },
    {
      "id": "1166993",
      "rank": 104,
      "name": "Rawalpindi",
      "country": "Pakistan",
      "lat": 33.59733,
      "lng": 73.0479,
      "population": 3357612
    },
    {
      "id": "13512505",
      "rank": 105,
      "name": "Lueliang",
      "country": "China",
      "lat": 37.5192,
      "lng": 111.14436,
      "population": 3346500
    },
    {
      "id": "1007311",
      "rank": 106,
      "name": "Durban",
      "country": "South Africa",
      "lat": -29.8579,
      "lng": 31.0292,
      "population": 3338026
    },
    {
      "id": "1815456",
      "rank": 107,
      "name": "Changzhou",
      "country": "China",
      "lat": 31.77359,
      "lng": 119.95401,
      "population": 3290918
    },
    {
      "id": "1838524",
      "rank": 108,
      "name": "Busan",
      "country": "South Korea",
      "lat": 35.10168,
      "lng": 129.03004,
      "population": 3285147
    },
    {
      "id": "3117735",
      "rank": 109,
      "name": "Madrid",
      "country": "Spain",
      "lat": 40.4165,
      "lng": -3.70256,
      "population": 3255944
    },
    {
      "id": "1871859",
      "rank": 110,
      "name": "Pyongyang",
      "country": "North Korea",
      "lat": 39.03385,
      "lng": 125.75432,
      "population": 3222000
    },
    {
      "id": "1785286",
      "rank": 111,
      "name": "Zibo",
      "country": "China",
      "lat": 36.79056,
      "lng": 118.06333,
      "population": 3129228
    },
    {
      "id": "1259229",
      "rank": 112,
      "name": "Pune",
      "country": "India",
      "lat": 18.51957,
      "lng": 73.85535,
      "population": 3124458
    },
    {
      "id": "750269",
      "rank": 113,
      "name": "Bursa",
      "country": "Turkey",
      "lat": 40.19559,
      "lng": 29.06013,
      "population": 3101833
    },
    {
      "id": "1815577",
      "rank": 114,
      "name": "Changsha",
      "country": "China",
      "lat": 28.19874,
      "lng": 112.97087,
      "population": 3093980
    },
    {
      "id": "1692192",
      "rank": 115,
      "name": "Quezon City",
      "country": "Philippines",
      "lat": 14.6488,
      "lng": 121.0509,
      "population": 3084270
    },
    {
      "id": "1269515",
      "rank": 116,
      "name": "Jaipur",
      "country": "India",
      "lat": 26.91962,
      "lng": 75.78781,
      "population": 3046163
    },
    {
      "id": "1809461",
      "rank": 117,
      "name": "Guiyang",
      "country": "China",
      "lat": 26.58333,
      "lng": 106.71667,
      "population": 3037159
    },
    {
      "id": "1529102",
      "rank": 118,
      "name": "UEruemqi",
      "country": "China",
      "lat": 43.80096,
      "lng": 87.60046,
      "population": 3029372
    },
    {
      "id": "1625822",
      "rank": 119,
      "name": "Surabaya",
      "country": "Indonesia",
      "lat": -7.24917,
      "lng": 112.75083,
      "population": 3018022
    },
    {
      "id": "1843564",
      "rank": 120,
      "name": "Incheon",
      "country": "South Korea",
      "lat": 37.45646,
      "lng": 126.70515,
      "population": 3015482
    }
  ]
}