{"kind":"points","source":"Natural Earth 1:50m Admin-0 Countries (public domain) for borders/continent, GeoNames countryInfo.txt for capitals, flagcdn.com for flag images.","note":"197 sovereign states with a usable ISO 3166-1 code and GeoNames capital entry. Excludes dependencies/territories (Puerto Rico, Greenland, Hong Kong, etc.), Antarctica, and two disputed territories with no assigned ISO code (Somaliland, Northern Cyprus). Dropped: none.","items":[{"id":"AF","rank":1,"name":"Afghanistan","lat":33.9241695,"lng":67.6805665,"continent":"Asia","capital":"Kabul","flagUrl":"https://flagcdn.com/w320/af.png"},{"id":"AL","rank":2,"name":"Albania","lat":41.150732500000004,"lng":20.1557615,"continent":"Europe","capital":"Tirana","flagUrl":"https://flagcdn.com/w320/al.png"},{"id":"DZ","rank":3,"name":"Algeria","lat":28.0404055,"lng":1.6422605,"continent":"Africa","capital":"Algiers","flagUrl":"https://flagcdn.com/w320/dz.png"},{"id":"AD","rank":4,"name":"Andorra","lat":42.540088,"lng":1.5838865,"continent":"Europe","capital":"Andorra la Vella","flagUrl":"https://flagcdn.com/w320/ad.png"},{"id":"AO","rank":5,"name":"Angola","lat":-11.9379885,"lng":17.894873,"continent":"Africa","capital":"Luanda","flagUrl":"https://flagcdn.com/w320/ao.png"},{"id":"AG","rank":6,"name":"Antigua and Barbuda","lat":17.168945,"lng":-61.817285,"continent":"North America","capital":"St. John's","flagUrl":"https://flagcdn.com/w320/ag.png"},{"id":"AR","rank":7,"name":"Argentina","lat":-37.07959,"lng":-63.622412499999996,"continent":"South America","capital":"Buenos Aires","flagUrl":"https://flagcdn.com/w320/ar.png"},{"id":"AM","rank":8,"name":"Armenia","lat":40.084375,"lng":45.0121095,"continent":"Asia","capital":"Yerevan","flagUrl":"https://flagcdn.com/w320/am.png"},{"id":"AU","rank":9,"name":"Australia","lat":-24.926416,"lng":133.40083049999998,"continent":"Oceania","capital":"Canberra","flagUrl":"https://flagcdn.com/w320/au.png"},{"id":"AT","rank":10,"name":"Austria","lat":47.700415,"lng":13.335693,"continent":"Europe","capital":"Vienna","flagUrl":"https://flagcdn.com/w320/at.png"},{"id":"AZ","rank":11,"name":"Azerbaijan","lat":40.1510255,"lng":47.56709,"continent":"Asia","capital":"Baku","flagUrl":"https://flagcdn.com/w320/az.png"},{"id":"BS","rank":12,"name":"Bahamas","lat":23.671387,"lng":-76.010449,"continent":"North America","capital":"Nassau","flagUrl":"https://flagcdn.com/w320/bs.png"},{"id":"BH","rank":13,"name":"Bahrain","lat":26.023755,"lng":50.5311035,"continent":"Asia","capital":"Manama","flagUrl":"https://flagcdn.com/w320/bh.png"},{"id":"BD","rank":14,"name":"Bangladesh","lat":23.681689499999997,"lng":90.3275395,"continent":"Asia","capital":"Dhaka","flagUrl":"https://flagcdn.com/w320/bd.png"},{"id":"BB","rank":15,"name":"Barbados","lat":13.1899415,"lng":-59.537158500000004,"continent":"North America","capital":"Bridgetown","flagUrl":"https://flagcdn.com/w320/bb.png"},{"id":"BY","rank":16,"name":"Belarus","lat":53.705420000000004,"lng":27.9407715,"continent":"Europe","capital":"Minsk","flagUrl":"https://flagcdn.com/w320/by.png"},{"id":"BE","rank":17,"name":"Belgium","lat":50.501001,"lng":4.4446775,"continent":"Europe","capital":"Brussels","flagUrl":"https://flagcdn.com/w320/be.png"},{"id":"BZ","rank":18,"name":"Belize","lat":17.182715,"lng":-88.659033,"continent":"North America","capital":"Belmopan","flagUrl":"https://flagcdn.com/w320/bz.png"},{"id":"BJ","rank":19,"name":"Benin","lat":9.3003175,"lng":2.298926,"continent":"Africa","capital":"Porto-Novo","flagUrl":"https://flagcdn.com/w320/bj.png"},{"id":"BT","rank":20,"name":"Bhutan","lat":27.506372499999998,"lng":90.411084,"continent":"Asia","capital":"Thimphu","flagUrl":"https://flagcdn.com/w320/bt.png"},{"id":"BO","rank":21,"name":"Bolivia","lat":-16.300781,"lng":-63.5706785,"continent":"South America","capital":"Sucre","flagUrl":"https://flagcdn.com/w320/bo.png"},{"id":"BA","rank":22,"name":"Bosnia and Herzegovina","lat":43.920531999999994,"lng":17.660204999999998,"continent":"Europe","capital":"Sarajevo","flagUrl":"https://flagcdn.com/w320/ba.png"},{"id":"BW","rank":23,"name":"Botswana","lat":-22.3226565,"lng":24.671094,"continent":"Africa","capital":"Gaborone","flagUrl":"https://flagcdn.com/w320/bw.png"},{"id":"BR","rank":24,"name":"Brazil","lat":-14.2421145,"lng":-54.40376,"continent":"South America","capital":"Brasilia","flagUrl":"https://flagcdn.com/w320/br.png"},{"id":"BN","rank":25,"name":"Brunei","lat":4.5300045,"lng":114.6953125,"continent":"Asia","capital":"Bandar Seri Begawan","flagUrl":"https://flagcdn.com/w320/bn.png"},{"id":"BG","rank":26,"name":"Bulgaria","lat":42.740674,"lng":25.4646975,"continent":"Europe","capital":"Sofia","flagUrl":"https://flagcdn.com/w320/bg.png"},{"id":"BF","rank":27,"name":"Burkina Faso","lat":12.251294,"lng":-1.5671875,"continent":"Africa","capital":"Ouagadougou","flagUrl":"https://flagcdn.com/w320/bf.png"},{"id":"BI","rank":28,"name":"Burundi","lat":-3.3844235,"lng":29.912744,"continent":"Africa","capital":"Gitega","flagUrl":"https://flagcdn.com/w320/bi.png"},{"id":"CV","rank":29,"name":"Cabo Verde","lat":16.572021,"lng":-24.032715,"continent":"Africa","capital":"Praia","flagUrl":"https://flagcdn.com/w320/cv.png"},{"id":"KH","rank":30,"name":"Cambodia","lat":12.558154,"lng":104.962598,"continent":"Asia","capital":"Phnom Penh","flagUrl":"https://flagcdn.com/w320/kh.png"},{"id":"CM","rank":31,"name":"Cameroon","lat":7.3773685,"lng":12.3581055,"continent":"Africa","capital":"Yaounde","flagUrl":"https://flagcdn.com/w320/cm.png"},{"id":"CA","rank":32,"name":"Canada","lat":57.7625,"lng":-96.827905,"continent":"North America","capital":"Ottawa","flagUrl":"https://flagcdn.com/w320/ca.png"},{"id":"CF","rank":33,"name":"Central African Republic","lat":6.633154,"lng":20.917236000000003,"continent":"Africa","capital":"Bangui","flagUrl":"https://flagcdn.com/w320/cf.png"},{"id":"TD","rank":34,"name":"Chad","lat":15.460254,"lng":18.714257500000002,"continent":"Africa","capital":"N'Djamena","flagUrl":"https://flagcdn.com/w320/td.png"},{"id":"CL","rank":35,"name":"Chile","lat":-36.207959,"lng":-71.358447,"continent":"South America","capital":"Santiago","flagUrl":"https://flagcdn.com/w320/cl.png"},{"id":"CN","rank":36,"name":"China","lat":36.905127,"lng":104.179834,"continent":"Asia","capital":"Beijing","flagUrl":"https://flagcdn.com/w320/cn.png"},{"id":"CO","rank":37,"name":"Colombia","lat":4.0981685,"lng":-72.950732,"continent":"South America","capital":"Bogota","flagUrl":"https://flagcdn.com/w320/co.png"},{"id":"KM","rank":38,"name":"Comoros","lat":-11.862109,"lng":43.491504,"continent":"Africa","capital":"Moroni","flagUrl":"https://flagcdn.com/w320/km.png"},{"id":"CR","rank":39,"name":"Costa Rica","lat":9.630053499999999,"lng":-84.235791,"continent":"North America","capital":"San Jose","flagUrl":"https://flagcdn.com/w320/cr.png"},{"id":"HR","rank":40,"name":"Croatia","lat":44.520996,"lng":16.103418,"continent":"Europe","capital":"Zagreb","flagUrl":"https://flagcdn.com/w320/hr.png"},{"id":"CU","rank":41,"name":"Cuba","lat":21.585156,"lng":-79.357422,"continent":"North America","capital":"Havana","flagUrl":"https://flagcdn.com/w320/cu.png"},{"id":"CY","rank":42,"name":"Cyprus","lat":34.871362500000004,"lng":33.175586,"continent":"Asia","capital":"Nicosia","flagUrl":"https://flagcdn.com/w320/cy.png"},{"id":"CZ","rank":43,"name":"Czechia","lat":49.8028565,"lng":15.4610355,"continent":"Europe","capital":"Prague","flagUrl":"https://flagcdn.com/w320/cz.png"},{"id":"CI","rank":44,"name":"Côte d'Ivoire","lat":7.537694999999999,"lng":-5.5547115,"continent":"Africa","capital":"Yamoussoukro","flagUrl":"https://flagcdn.com/w320/ci.png"},{"id":"CD","rank":45,"name":"Democratic Republic of the Congo","lat":-4.07085,"lng":21.7438475,"continent":"Africa","capital":"Kinshasa","flagUrl":"https://flagcdn.com/w320/cd.png"},{"id":"DK","rank":46,"name":"Denmark","lat":55.956885,"lng":11.627734,"continent":"Europe","capital":"Copenhagen","flagUrl":"https://flagcdn.com/w320/dk.png"},{"id":"DJ","rank":47,"name":"Djibouti","lat":11.824805,"lng":42.587207,"continent":"Africa","capital":"Djibouti","flagUrl":"https://flagcdn.com/w320/dj.png"},{"id":"DM","rank":48,"name":"Dominica","lat":15.4302,"lng":-61.366113,"continent":"North America","capital":"Roseau","flagUrl":"https://flagcdn.com/w320/dm.png"},{"id":"DO","rank":49,"name":"Dominican Republic","lat":18.7747805,"lng":-70.1697755,"continent":"North America","capital":"Santo Domingo","flagUrl":"https://flagcdn.com/w320/do.png"},{"id":"EC","rank":50,"name":"Ecuador","lat":-2.189258,"lng":-80.962793,"continent":"South America","capital":"Quito","flagUrl":"https://flagcdn.com/w320/ec.png"},{"id":"EG","rank":51,"name":"Egypt","lat":26.824926499999997,"lng":30.787305,"continent":"Africa","capital":"Cairo","flagUrl":"https://flagcdn.com/w320/eg.png"},{"id":"SV","rank":52,"name":"El Salvador","lat":13.797559,"lng":-88.910034,"continent":"North America","capital":"San Salvador","flagUrl":"https://flagcdn.com/w320/sv.png"},{"id":"GQ","rank":53,"name":"Equatorial Guinea","lat":2.304443,"lng":9.800781,"continent":"Africa","capital":"Ciudad de la Paz","flagUrl":"https://flagcdn.com/w320/gq.png"},{"id":"ER","rank":54,"name":"Eritrea","lat":15.20127,"lng":39.819434,"continent":"Africa","capital":"Asmara","flagUrl":"https://flagcdn.com/w320/er.png"},{"id":"EE","rank":55,"name":"Estonia","lat":58.5835695,"lng":25.002783,"continent":"Europe","capital":"Tallinn","flagUrl":"https://flagcdn.com/w320/ee.png"},{"id":"SZ","rank":56,"name":"eSwatini","lat":-26.524414,"lng":31.4509765,"continent":"Africa","capital":"Mbabane","flagUrl":"https://flagcdn.com/w320/sz.png"},{"id":"ET","rank":57,"name":"Ethiopia","lat":9.1541995,"lng":40.4954105,"continent":"Africa","capital":"Addis Ababa","flagUrl":"https://flagcdn.com/w320/et.png"},{"id":"FJ","rank":58,"name":"Fiji","lat":-19.15166,"lng":178.020801,"continent":"Oceania","capital":"Suva","flagUrl":"https://flagcdn.com/w320/fj.png"},{"id":"FI","rank":59,"name":"Finland","lat":64.9440185,"lng":26.078076,"continent":"Europe","capital":"Helsinki","flagUrl":"https://flagcdn.com/w320/fi.png"},{"id":"FR","rank":60,"name":"France","lat":43.051758,"lng":-1.46084,"continent":"Europe","capital":"Paris","flagUrl":"https://flagcdn.com/w320/fr.png"},{"id":"GA","rank":61,"name":"Gabon","lat":-0.8083009999999999,"lng":11.588623,"continent":"Africa","capital":"Libreville","flagUrl":"https://flagcdn.com/w320/ga.png"},{"id":"GM","rank":62,"name":"Gambia","lat":13.4381345,"lng":-15.325757,"continent":"Africa","capital":"Banjul","flagUrl":"https://flagcdn.com/w320/gm.png"},{"id":"GE","rank":63,"name":"Georgia","lat":42.319995,"lng":43.3254395,"continent":"Asia","capital":"Tbilisi","flagUrl":"https://flagcdn.com/w320/ge.png"},{"id":"DE","rank":64,"name":"Germany","lat":51.091113500000006,"lng":10.437061,"continent":"Europe","capital":"Berlin","flagUrl":"https://flagcdn.com/w320/de.png"},{"id":"GH","rank":65,"name":"Ghana","lat":7.964673,"lng":-1.024292,"continent":"Africa","capital":"Accra","flagUrl":"https://flagcdn.com/w320/gh.png"},{"id":"GR","rank":66,"name":"Greece","lat":38.339135999999996,"lng":24.116553000000003,"continent":"Europe","capital":"Athens","flagUrl":"https://flagcdn.com/w320/gr.png"},{"id":"GD","rank":67,"name":"Grenada","lat":12.1227295,"lng":-61.6946045,"continent":"North America","capital":"St. George's","flagUrl":"https://flagcdn.com/w320/gd.png"},{"id":"GT","rank":68,"name":"Guatemala","lat":15.7764645,"lng":-90.231738,"continent":"North America","capital":"Guatemala City","flagUrl":"https://flagcdn.com/w320/gt.png"},{"id":"GN","rank":69,"name":"Guinea","lat":9.977734,"lng":-11.205664,"continent":"Africa","capital":"Conakry","flagUrl":"https://flagcdn.com/w320/gn.png"},{"id":"GW","rank":70,"name":"Guinea-Bissau","lat":11.8100345,"lng":-15.1926755,"continent":"Africa","capital":"Bissau","flagUrl":"https://flagcdn.com/w320/gw.png"},{"id":"GY","rank":71,"name":"Guyana","lat":4.8752685,"lng":-58.936816,"continent":"South America","capital":"Georgetown","flagUrl":"https://flagcdn.com/w320/gy.png"},{"id":"HT","rank":72,"name":"Haiti","lat":18.932031,"lng":-73.069141,"continent":"North America","capital":"Port-au-Prince","flagUrl":"https://flagcdn.com/w320/ht.png"},{"id":"HN","rank":73,"name":"Honduras","lat":14.501709000000002,"lng":-86.26005900000001,"continent":"North America","capital":"Tegucigalpa","flagUrl":"https://flagcdn.com/w320/hn.png"},{"id":"HU","rank":74,"name":"Hungary","lat":47.15979,"lng":19.484863,"continent":"Europe","capital":"Budapest","flagUrl":"https://flagcdn.com/w320/hu.png"},{"id":"IS","rank":75,"name":"Iceland","lat":64.96479450000001,"lng":-19.022681,"continent":"Europe","capital":"Reykjavik","flagUrl":"https://flagcdn.com/w320/is.png"},{"id":"IN","rank":76,"name":"India","lat":21.787108999999997,"lng":82.7520995,"continent":"Asia","capital":"New Delhi","flagUrl":"https://flagcdn.com/w320/in.png"},{"id":"ID","rank":77,"name":"Indonesia","lat":-2.720801,"lng":118.783301,"continent":"Asia","capital":"Jakarta","flagUrl":"https://flagcdn.com/w320/id.png"},{"id":"IR","rank":78,"name":"Iran","lat":32.4353275,"lng":53.664209,"continent":"Asia","capital":"Tehran","flagUrl":"https://flagcdn.com/w320/ir.png"},{"id":"IQ","rank":79,"name":"Iraq","lat":33.2177735,"lng":43.6600095,"continent":"Asia","capital":"Baghdad","flagUrl":"https://flagcdn.com/w320/iq.png"},{"id":"IE","rank":80,"name":"Ireland","lat":53.4169675,"lng":-8.2088135,"continent":"Europe","capital":"Dublin","flagUrl":"https://flagcdn.com/w320/ie.png"},{"id":"IL","rank":81,"name":"Israel","lat":31.366211,"lng":35.101172,"continent":"Asia","capital":"Jerusalem","flagUrl":"https://flagcdn.com/w320/il.png"},{"id":"IT","rank":82,"name":"Italy","lat":41.8849855,"lng":12.556787,"continent":"Europe","capital":"Rome","flagUrl":"https://flagcdn.com/w320/it.png"},{"id":"JM","rank":83,"name":"Jamaica","lat":18.118579,"lng":-77.2751465,"continent":"North America","capital":"Kingston","flagUrl":"https://flagcdn.com/w320/jm.png"},{"id":"JP","rank":84,"name":"Japan","lat":37.52207,"lng":137.322656,"continent":"Asia","capital":"Tokyo","flagUrl":"https://flagcdn.com/w320/jp.png"},{"id":"JO","rank":85,"name":"Jordan","lat":31.281348,"lng":37.121776999999994,"continent":"Asia","capital":"Amman","flagUrl":"https://flagcdn.com/w320/jo.png"},{"id":"KZ","rank":86,"name":"Kazakhstan","lat":48.004517,"lng":66.966016,"continent":"Asia","capital":"Nur-Sultan","flagUrl":"https://flagcdn.com/w320/kz.png"},{"id":"KE","rank":87,"name":"Kenya","lat":0.3999509999999997,"lng":37.8936035,"continent":"Africa","capital":"Nairobi","flagUrl":"https://flagcdn.com/w320/ke.png"},{"id":"KI","rank":88,"name":"Kiribati","lat":-11.441016,"lng":-151.782617,"continent":"Oceania","capital":"Tarawa","flagUrl":"https://flagcdn.com/w320/ki.png"},{"id":"XK","rank":89,"name":"Kosovo","lat":42.5636475,"lng":20.891211,"continent":"Europe","capital":"Pristina","flagUrl":"https://flagcdn.com/w320/xk.png"},{"id":"KW","rank":90,"name":"Kuwait","lat":29.3064205,"lng":47.486962500000004,"continent":"Asia","capital":"Kuwait City","flagUrl":"https://flagcdn.com/w320/kw.png"},{"id":"KG","rank":91,"name":"Kyrgyzstan","lat":41.2239505,"lng":74.7376465,"continent":"Asia","capital":"Bishkek","flagUrl":"https://flagcdn.com/w320/kg.png"},{"id":"LA","rank":92,"name":"Laos","lat":18.295313,"lng":103.898828,"continent":"Asia","capital":"Vientiane","flagUrl":"https://flagcdn.com/w320/la.png"},{"id":"LV","rank":93,"name":"Latvia","lat":56.8654785,"lng":24.608496000000002,"continent":"Europe","capital":"Riga","flagUrl":"https://flagcdn.com/w320/lv.png"},{"id":"LB","rank":94,"name":"Lebanon","lat":33.8771975,"lng":35.8467775,"continent":"Asia","capital":"Beirut","flagUrl":"https://flagcdn.com/w320/lb.png"},{"id":"LS","rank":95,"name":"Lesotho","lat":-29.606396500000002,"lng":28.2238285,"continent":"Africa","capital":"Maseru","flagUrl":"https://flagcdn.com/w320/ls.png"},{"id":"LR","rank":96,"name":"Liberia","lat":6.444506499999999,"lng":-9.453711,"continent":"Africa","capital":"Monrovia","flagUrl":"https://flagcdn.com/w320/lr.png"},{"id":"LY","rank":97,"name":"Libya","lat":26.3392825,"lng":17.230370999999998,"continent":"Africa","capital":"Tripoli","flagUrl":"https://flagcdn.com/w320/ly.png"},{"id":"LI","rank":98,"name":"Liechtenstein","lat":47.1640625,"lng":9.5450195,"continent":"Europe","capital":"Vaduz","flagUrl":"https://flagcdn.com/w320/li.png"},{"id":"LT","rank":99,"name":"Lithuania","lat":55.152075499999995,"lng":23.910888999999997,"continent":"Europe","capital":"Vilnius","flagUrl":"https://flagcdn.com/w320/lt.png"},{"id":"LU","rank":100,"name":"Luxembourg","lat":49.806323,"lng":6.1061525,"continent":"Europe","capital":"Luxembourg","flagUrl":"https://flagcdn.com/w320/lu.png"},{"id":"MG","rank":101,"name":"Madagascar","lat":-18.825049,"lng":46.8737795,"continent":"Africa","capital":"Antananarivo","flagUrl":"https://flagcdn.com/w320/mg.png"},{"id":"MW","rank":102,"name":"Malawi","lat":-13.261133000000001,"lng":34.2824215,"continent":"Africa","capital":"Lilongwe","flagUrl":"https://flagcdn.com/w320/mw.png"},{"id":"MY","rank":103,"name":"Malaysia","lat":2.027539,"lng":109.628906,"continent":"Asia","capital":"Kuala Lumpur","flagUrl":"https://flagcdn.com/w320/my.png"},{"id":"MV","rank":104,"name":"Maldives","lat":4.158936,"lng":73.478613,"continent":"Asia","capital":"Male","flagUrl":"https://flagcdn.com/w320/mv.png"},{"id":"ML","rank":105,"name":"Mali","lat":17.569433500000002,"lng":-4.022973499999999,"continent":"Africa","capital":"Bamako","flagUrl":"https://flagcdn.com/w320/ml.png"},{"id":"MT","rank":106,"name":"Malta","lat":35.947998,"lng":14.373290999999998,"continent":"Europe","capital":"Valletta","flagUrl":"https://flagcdn.com/w320/mt.png"},{"id":"MH","rank":107,"name":"Marshall Islands","lat":7.308984,"lng":168.830273,"continent":"Oceania","capital":"Majuro","flagUrl":"https://flagcdn.com/w320/mh.png"},{"id":"MR","rank":108,"name":"Mauritania","lat":21.015649,"lng":-10.943286,"continent":"Africa","capital":"Nouakchott","flagUrl":"https://flagcdn.com/w320/mr.png"},{"id":"MU","rank":109,"name":"Mauritius","lat":-20.246826,"lng":57.554834,"continent":"Africa","capital":"Port Louis","flagUrl":"https://flagcdn.com/w320/mu.png"},{"id":"MX","rank":110,"name":"Mexico","lat":23.630370999999997,"lng":-101.950024,"continent":"North America","capital":"Mexico City","flagUrl":"https://flagcdn.com/w320/mx.png"},{"id":"FM","rank":111,"name":"Micronesia","lat":7.338086,"lng":151.57832,"continent":"Oceania","capital":"Palikir","flagUrl":"https://flagcdn.com/w320/fm.png"},{"id":"MD","rank":112,"name":"Moldova","lat":46.9640865,"lng":28.375,"continent":"Europe","capital":"Chisinau","flagUrl":"https://flagcdn.com/w320/md.png"},{"id":"MC","rank":113,"name":"Monaco","lat":43.751318,"lng":7.408203,"continent":"Europe","capital":"Monaco","flagUrl":"https://flagcdn.com/w320/mc.png"},{"id":"MN","rank":114,"name":"Mongolia","lat":46.8563965,"lng":103.82050799999999,"continent":"Asia","capital":"Ulaanbaatar","flagUrl":"https://flagcdn.com/w320/mn.png"},{"id":"ME","rank":115,"name":"Montenegro","lat":42.7011965,"lng":19.391992000000002,"continent":"Europe","capital":"Podgorica","flagUrl":"https://flagcdn.com/w320/me.png"},{"id":"MA","rank":116,"name":"Morocco","lat":28.6753175,"lng":-9.034253,"continent":"Africa","capital":"Rabat","flagUrl":"https://flagcdn.com/w320/ma.png"},{"id":"MZ","rank":117,"name":"Mozambique","lat":-18.662988,"lng":35.5381835,"continent":"Africa","capital":"Maputo","flagUrl":"https://flagcdn.com/w320/mz.png"},{"id":"MM","rank":118,"name":"Myanmar","lat":19.272582999999997,"lng":96.66342800000001,"continent":"Asia","capital":"Nay Pyi Taw","flagUrl":"https://flagcdn.com/w320/mm.png"},{"id":"NA","rank":119,"name":"Namibia","lat":-22.953223,"lng":18.4961425,"continent":"Africa","capital":"Windhoek","flagUrl":"https://flagcdn.com/w320/na.png"},{"id":"NR","rank":120,"name":"Nauru","lat":-0.520068,"lng":166.93271449999997,"continent":"Oceania","capital":"Yaren","flagUrl":"https://flagcdn.com/w320/nr.png"},{"id":"NP","rank":121,"name":"Nepal","lat":28.3739015,"lng":84.10659150000001,"continent":"Asia","capital":"Kathmandu","flagUrl":"https://flagcdn.com/w320/np.png"},{"id":"NL","rank":122,"name":"Netherlands","lat":52.095800499999996,"lng":5.273682,"continent":"Europe","capital":"Amsterdam","flagUrl":"https://flagcdn.com/w320/nl.png"},{"id":"NZ","rank":123,"name":"New Zealand","lat":-40.8438965,"lng":172.5069335,"continent":"Oceania","capital":"Wellington","flagUrl":"https://flagcdn.com/w320/nz.png"},{"id":"NI","rank":124,"name":"Nicaragua","lat":12.8717045,"lng":-85.413843,"continent":"North America","capital":"Managua","flagUrl":"https://flagcdn.com/w320/ni.png"},{"id":"NE","rank":125,"name":"Niger","lat":17.60708,"lng":8.0635255,"continent":"Africa","capital":"Niamey","flagUrl":"https://flagcdn.com/w320/ne.png"},{"id":"NG","rank":126,"name":"Nigeria","lat":9.075122499999999,"lng":8.652880999999999,"continent":"Africa","capital":"Abuja","flagUrl":"https://flagcdn.com/w320/ng.png"},{"id":"KP","rank":127,"name":"North Korea","lat":40.361475,"lng":127.51796900000001,"continent":"Asia","capital":"Pyongyang","flagUrl":"https://flagcdn.com/w320/kp.png"},{"id":"MK","rank":128,"name":"North Macedonia","lat":41.604028,"lng":21.726123,"continent":"Europe","capital":"Skopje","flagUrl":"https://flagcdn.com/w320/mk.png"},{"id":"NO","rank":129,"name":"Norway","lat":68.308325,"lng":17.9442385,"continent":"Europe","capital":"Oslo","flagUrl":"https://flagcdn.com/w320/no.png"},{"id":"OM","rank":130,"name":"Oman","lat":20.813794,"lng":55.9075685,"continent":"Asia","capital":"Muscat","flagUrl":"https://flagcdn.com/w320/om.png"},{"id":"PK","rank":131,"name":"Pakistan","lat":30.3950195,"lng":68.945996,"continent":"Asia","capital":"Islamabad","flagUrl":"https://flagcdn.com/w320/pk.png"},{"id":"PW","rank":132,"name":"Palau","lat":7.360645,"lng":134.534668,"continent":"Oceania","capital":"Melekeok","flagUrl":"https://flagcdn.com/w320/pw.png"},{"id":"PS","rank":133,"name":"Palestine","lat":31.82334,"lng":34.961133,"continent":"Asia","capital":"East Jerusalem","flagUrl":"https://flagcdn.com/w320/ps.png"},{"id":"PA","rank":134,"name":"Panama","lat":8.40896,"lng":-80.11167,"continent":"North America","capital":"Panama City","flagUrl":"https://flagcdn.com/w320/pa.png"},{"id":"PG","rank":135,"name":"Papua New Guinea","lat":-6.551172,"lng":147.854492,"continent":"Oceania","capital":"Port Moresby","flagUrl":"https://flagcdn.com/w320/pg.png"},{"id":"PY","rank":136,"name":"Paraguay","lat":-23.420019500000002,"lng":-58.446387,"continent":"South America","capital":"Asuncion","flagUrl":"https://flagcdn.com/w320/py.png"},{"id":"PE","rank":137,"name":"Peru","lat":-9.193676499999999,"lng":-75.0109375,"continent":"South America","capital":"Lima","flagUrl":"https://flagcdn.com/w320/pe.png"},{"id":"PH","rank":138,"name":"Philippines","lat":11.897363,"lng":121.963672,"continent":"Asia","capital":"Manila","flagUrl":"https://flagcdn.com/w320/ph.png"},{"id":"PL","rank":139,"name":"Poland","lat":51.929468,"lng":19.1171875,"continent":"Europe","capital":"Warsaw","flagUrl":"https://flagcdn.com/w320/pl.png"},{"id":"PT","rank":140,"name":"Portugal","lat":39.571411,"lng":-7.8433105,"continent":"Europe","capital":"Lisbon","flagUrl":"https://flagcdn.com/w320/pt.png"},{"id":"QA","rank":141,"name":"Qatar","lat":25.358959499999997,"lng":51.1817385,"continent":"Asia","capital":"Doha","flagUrl":"https://flagcdn.com/w320/qa.png"},{"id":"CG","rank":142,"name":"Republic of the Congo","lat":-0.6598390000000001,"lng":14.876172,"continent":"Africa","capital":"Brazzaville","flagUrl":"https://flagcdn.com/w320/cg.png"},{"id":"RO","rank":143,"name":"Romania","lat":45.967139,"lng":24.973827999999997,"continent":"Europe","capital":"Bucharest","flagUrl":"https://flagcdn.com/w320/ro.png"},{"id":"RU","rank":144,"name":"Russia","lat":55.583203,"lng":43.675976500000004,"continent":"Europe","capital":"Moscow","flagUrl":"https://flagcdn.com/w320/ru.png"},{"id":"RW","rank":145,"name":"Rwanda","lat":-1.9379395,"lng":29.86709,"continent":"Africa","capital":"Kigali","flagUrl":"https://flagcdn.com/w320/rw.png"},{"id":"LC","rank":146,"name":"Saint Lucia","lat":13.9054685,"lng":-60.984179999999995,"continent":"North America","capital":"Castries","flagUrl":"https://flagcdn.com/w320/lc.png"},{"id":"VC","rank":147,"name":"Saint Vincent and the Grenadines","lat":13.043262,"lng":-61.212842,"continent":"North America","capital":"Kingstown","flagUrl":"https://flagcdn.com/w320/vc.png"},{"id":"WS","rank":148,"name":"Samoa","lat":-13.684668,"lng":-172.176855,"continent":"Oceania","capital":"Apia","flagUrl":"https://flagcdn.com/w320/ws.png"},{"id":"SM","rank":149,"name":"San Marino","lat":43.941919,"lng":12.450292999999999,"continent":"Europe","capital":"San Marino","flagUrl":"https://flagcdn.com/w320/sm.png"},{"id":"ST","rank":150,"name":"São Tomé and Principe","lat":0.404395,"lng":6.686914,"continent":"Africa","capital":"Sao Tome","flagUrl":"https://flagcdn.com/w320/st.png"},{"id":"SA","rank":151,"name":"Saudi Arabia","lat":24.248144500000002,"lng":45.1286135,"continent":"Asia","capital":"Riyadh","flagUrl":"https://flagcdn.com/w320/sa.png"},{"id":"SN","rank":152,"name":"Senegal","lat":14.503466500000002,"lng":-14.4590335,"continent":"Africa","capital":"Dakar","flagUrl":"https://flagcdn.com/w320/sn.png"},{"id":"RS","rank":153,"name":"Serbia","lat":44.2044925,"lng":20.907958999999998,"continent":"Europe","capital":"Belgrade","flagUrl":"https://flagcdn.com/w320/rs.png"},{"id":"SC","rank":154,"name":"Seychelles","lat":-4.672168,"lng":55.4631835,"continent":"Africa","capital":"Victoria","flagUrl":"https://flagcdn.com/w320/sc.png"},{"id":"SL","rank":155,"name":"Sierra Leone","lat":8.451538,"lng":-11.7879395,"continent":"Africa","capital":"Freetown","flagUrl":"https://flagcdn.com/w320/sl.png"},{"id":"SG","rank":156,"name":"Singapore","lat":1.3562255,"lng":103.823291,"continent":"Asia","capital":"Singapore","flagUrl":"https://flagcdn.com/w320/sg.png"},{"id":"SK","rank":157,"name":"Slovakia","lat":48.683935500000004,"lng":19.700683499999997,"continent":"Europe","capital":"Bratislava","flagUrl":"https://flagcdn.com/w320/sk.png"},{"id":"SI","rank":158,"name":"Slovenia","lat":46.145825,"lng":14.947216999999998,"continent":"Europe","capital":"Ljubljana","flagUrl":"https://flagcdn.com/w320/si.png"},{"id":"SB","rank":159,"name":"Solomon Islands","lat":-9.191992,"lng":161.256641,"continent":"Oceania","capital":"Honiara","flagUrl":"https://flagcdn.com/w320/sb.png"},{"id":"SO","rank":160,"name":"Somalia","lat":5.1441895,"lng":46.1816405,"continent":"Africa","capital":"Mogadishu","flagUrl":"https://flagcdn.com/w320/so.png"},{"id":"ZA","rank":161,"name":"South Africa","lat":-28.466015499999997,"lng":24.666846,"continent":"Africa","capital":"Pretoria","flagUrl":"https://flagcdn.com/w320/za.png"},{"id":"KR","rank":162,"name":"South Korea","lat":35.9191405,"lng":127.86669950000001,"continent":"Asia","capital":"Seoul","flagUrl":"https://flagcdn.com/w320/kr.png"},{"id":"SS","rank":163,"name":"South Sudan","lat":7.854004,"lng":29.707860999999998,"continent":"Africa","capital":"Juba","flagUrl":"https://flagcdn.com/w320/ss.png"},{"id":"ES","rank":164,"name":"Spain","lat":39.8952395,"lng":-2.9642335,"continent":"Europe","capital":"Madrid","flagUrl":"https://flagcdn.com/w320/es.png"},{"id":"LK","rank":165,"name":"Sri Lanka","lat":7.88103,"lng":80.7935545,"continent":"Asia","capital":"Colombo","flagUrl":"https://flagcdn.com/w320/lk.png"},{"id":"KN","rank":166,"name":"St. Kitts and Nevis","lat":17.286035,"lng":-62.702002,"continent":"North America","capital":"Basseterre","flagUrl":"https://flagcdn.com/w320/kn.png"},{"id":"SD","rank":167,"name":"Sudan","lat":15.434033,"lng":30.217382999999998,"continent":"Africa","capital":"Khartoum","flagUrl":"https://flagcdn.com/w320/sd.png"},{"id":"SR","rank":168,"name":"Suriname","lat":3.9178465,"lng":-56.0224855,"continent":"South America","capital":"Paramaribo","flagUrl":"https://flagcdn.com/w320/sr.png"},{"id":"SE","rank":169,"name":"Sweden","lat":62.233008,"lng":17.633691,"continent":"Europe","capital":"Stockholm","flagUrl":"https://flagcdn.com/w320/se.png"},{"id":"CH","rank":170,"name":"Switzerland","lat":46.802832,"lng":8.212305,"continent":"Europe","capital":"Bern","flagUrl":"https://flagcdn.com/w320/ch.png"},{"id":"SY","rank":171,"name":"Syria","lat":34.8072755,"lng":39.0617185,"continent":"Asia","capital":"Damascus","flagUrl":"https://flagcdn.com/w320/sy.png"},{"id":"TW","rank":172,"name":"Taiwan","lat":23.600171,"lng":121.0007325,"continent":"Asia","capital":"Taipei","flagUrl":"https://flagcdn.com/w320/tw.png"},{"id":"TJ","rank":173,"name":"Tajikistan","lat":38.86469700000001,"lng":71.2381835,"continent":"Asia","capital":"Dushanbe","flagUrl":"https://flagcdn.com/w320/tj.png"},{"id":"TZ","rank":174,"name":"Tanzania","lat":-6.3555665,"lng":34.893506,"continent":"Africa","capital":"Dodoma","flagUrl":"https://flagcdn.com/w320/tz.png"},{"id":"TH","rank":175,"name":"Thailand","lat":13.030591,"lng":101.507471,"continent":"Asia","capital":"Bangkok","flagUrl":"https://flagcdn.com/w320/th.png"},{"id":"TL","rank":176,"name":"Timor-Leste","lat":-8.913818500000001,"lng":125.666211,"continent":"Asia","capital":"Dili","flagUrl":"https://flagcdn.com/w320/tl.png"},{"id":"TG","rank":177,"name":"Togo","lat":8.6025145,"lng":0.843872,"continent":"Africa","capital":"Lome","flagUrl":"https://flagcdn.com/w320/tg.png"},{"id":"TO","rank":178,"name":"Tonga","lat":-21.129004,"lng":-175.078174,"continent":"Oceania","capital":"Nuku'alofa","flagUrl":"https://flagcdn.com/w320/to.png"},{"id":"TT","rank":179,"name":"Trinidad and Tobago","lat":10.697265999999999,"lng":-61.215796,"continent":"North America","capital":"Port of Spain","flagUrl":"https://flagcdn.com/w320/tt.png"},{"id":"TN","rank":180,"name":"Tunisia","lat":33.784888,"lng":9.516992,"continent":"Africa","capital":"Tunis","flagUrl":"https://flagcdn.com/w320/tn.png"},{"id":"TR","rank":181,"name":"Turkey","lat":38.962353500000006,"lng":35.4280765,"continent":"Asia","capital":"Ankara","flagUrl":"https://flagcdn.com/w320/tr.png"},{"id":"TM","rank":182,"name":"Turkmenistan","lat":38.974633999999995,"lng":59.5615725,"continent":"Asia","capital":"Ashgabat","flagUrl":"https://flagcdn.com/w320/tm.png"},{"id":"TV","rank":183,"name":"Tuvalu","lat":-8.5005375,"lng":179.2046875,"continent":"Oceania","capital":"Funafuti","flagUrl":"https://flagcdn.com/w320/tv.png"},{"id":"UG","rank":184,"name":"Uganda","lat":1.3751464999999998,"lng":32.269189499999996,"continent":"Africa","capital":"Kampala","flagUrl":"https://flagcdn.com/w320/ug.png"},{"id":"UA","rank":185,"name":"Ukraine","lat":48.789452999999995,"lng":31.129004,"continent":"Europe","capital":"Kyiv","flagUrl":"https://flagcdn.com/w320/ua.png"},{"id":"AE","rank":186,"name":"United Arab Emirates","lat":24.077051,"lng":53.893359,"continent":"Asia","capital":"Abu Dhabi","flagUrl":"https://flagcdn.com/w320/ae.png"},{"id":"GB","rank":187,"name":"United Kingdom","lat":54.3356935,"lng":-3.199121,"continent":"Europe","capital":"London","flagUrl":"https://flagcdn.com/w320/gb.png"},{"id":"US","rank":188,"name":"United States","lat":48.2728515,"lng":-117.5376955,"continent":"North America","capital":"Washington","flagUrl":"https://flagcdn.com/w320/us.png"},{"id":"UY","rank":189,"name":"Uruguay","lat":-32.52002,"lng":-55.7818605,"continent":"South America","capital":"Montevideo","flagUrl":"https://flagcdn.com/w320/uy.png"},{"id":"UZ","rank":190,"name":"Uzbekistan","lat":41.363794,"lng":64.55390650000001,"continent":"Asia","capital":"Tashkent","flagUrl":"https://flagcdn.com/w320/uz.png"},{"id":"VU","rank":191,"name":"Vanuatu","lat":-16.804004,"lng":168.181445,"continent":"Oceania","capital":"Port Vila","flagUrl":"https://flagcdn.com/w320/vu.png"},{"id":"VA","rank":192,"name":"Vatican","lat":41.901514,"lng":12.434863,"continent":"Europe","capital":"Vatican City","flagUrl":"https://flagcdn.com/w320/va.png"},{"id":"VE","rank":193,"name":"Venezuela","lat":6.4329345,"lng":-66.598926,"continent":"South America","capital":"Caracas","flagUrl":"https://flagcdn.com/w320/ve.png"},{"id":"VN","rank":194,"name":"Vietnam","lat":16.492627,"lng":106.656445,"continent":"Asia","capital":"Hanoi","flagUrl":"https://flagcdn.com/w320/vn.png"},{"id":"YE","rank":195,"name":"Yemen","lat":15.8019045,"lng":47.871729,"continent":"Asia","capital":"Sanaa","flagUrl":"https://flagcdn.com/w320/ye.png"},{"id":"ZM","rank":196,"name":"Zambia","lat":-13.117578,"lng":27.8202145,"continent":"Africa","capital":"Lusaka","flagUrl":"https://flagcdn.com/w320/zm.png"},{"id":"ZW","rank":197,"name":"Zimbabwe","lat":-19.0225585,"lng":29.1153805,"continent":"Africa","capital":"Harare","flagUrl":"https://flagcdn.com/w320/zw.png"}]}